[{"type":"doctor","name":"Dr. John Smith","specialization":"Pediatrics, Oncology","state":"West Bengal","district":"Howrah","city":"Kolkata","lat":22.572646,"lon\r":88.263895},{"type":"clinic","name":"ABC Clinic","specialization":"General Medicine","state":"West Bengal","district":"Kolkata","city":"Kolkata","lat":22.56645,"lon\r":88.239895},{"type":"hospital","name":"XYZ Hospital","specialization":"Orthopedics, Surgery","state":"West Bengal","district":"Howrah","city":"Kolkata","lat":22.67263,"lon\r":88.203895},{"type":"doctor","name":"Dr. Jane Doe","specialization":"Cardiology, Neurology","state":"West Bengal","district":"Howrah","city":"Kolkata","lat":22.57666,"lon\r":88.223895},{"type":"clinic","name":"DEF Clinic","specialization":"Dermatology","state":"West Bengal","district":"Howrah","city":"Kolkata","lat":22.56888,"lon\r":88.253895},{"type":"hospital","name":"GHI Hospital","specialization":"Obstetrics, Gynecology","state":"West Bengal","district":"Howrah","city":"Kolkata","lat":22.32489,"lon\r":88.313895},{"type":"doctor","name":"Dr. Robert Johnson","specialization":"Pediatrics, Orthopedics","state":"West Bengal","district":"Howrah","city":"Kolkata","lat":22.56886,"lon\r":88.323895},{"type":"clinic","name":"JKL Clinic","specialization":"General Medicine","state":"West Bengal","district":"Howrah","city":"Kolkata","lat":22.52222,"lon\r":88.333895},{"type":"hospital","name":"MNO Hospital","specialization":"Neurosurgery, Oncology","state":"West Bengal","district":"Howrah","city":"Kolkata","lat":22.54238,"lon\r":88.343895},{"type":"doctor","name":"Dr. Maria Rodriguez","specialization":"Dermatology, Allergy","state":"West Bengal","district":"Howrah","city":"Kolkata","lat":22.53684,"lon\r":88.353895},{"type":"clinic","name":"PQR Clinic","specialization":"Pediatrics","state":"West Bengal","district":"Howrah","city":"Kolkata","lat":22.56382,"lon\r":88.363895},{"type":"hospital","name":"STU Hospital","specialization":"Cardiology, Surgery","state":"West Bengal","district":"Howrah","city":"Kolkata","lat":22.61002,"lon\r":88.373895},{"type":"doctor","name":"Dr. William Thompson","specialization":"Internal Medicine","state":"West Bengal","district":"Howrah","city":"Kolkata","lat":22.58962,"lon\r":88.383895},{"type":"clinic","name":"VWX Clinic","specialization":"Orthopedics","state":"West Bengal","district":"Howrah","city":"Kolkata","lat":22.51111,"lon\r":88.393895},{"type":"hospital","name":"YZ Hospital","specialization":"Pediatrics, Oncology","state":"West Bengal","district":"Hoogly","city":"Kolkata","lat":22.52389,"lon\r":88.403895},{"type":"doctor","name":"Dr. Elizabeth Smith","specialization":"Cardiology, Neurology","state":"West Bengal","district":"Hoogly","city":"Kolkata","lat":22.54195,"lon\r":88.413895},{"type":"clinic","name":"ABC Clinic","specialization":"Dermatology","state":"West Bengal","district":"Hoogly","city":"Kolkata","lat":22.52005,"lon\r":88.423895},{"type":"hospital","name":"DEF Hospital","specialization":"Obstetrics, Gynecology","state":"West Bengal","district":"Hoogly","city":"Kolkata","lat":22.58233,"lon\r":88.433895},{"type":"doctor","name":"Dr. James Johnson","specialization":"Pediatrics, Orthopedics","state":"West Bengal","district":"Hoogly","city":"Kolkata","lat":22.54646,"lon\r":88.443895},{"type":"clinic","name":"GHI Clinic","specialization":"General Medicine","state":"West Bengal","district":"Hoogly","city":"Kolkata","lat":22.59111,"lon\r":88.453895},{"type":"hospital","name":"JKL Hospital","specialization":"Neurosurgery, Oncology","state":"West Bengal","district":"Hoogly","city":"Kolkata","lat":22.61399,"lon\r":88.463895},{"type":"doctor","name":"Dr. Rachel Williams","specialization":"Gynecology","state":"West Bengal","district":"Hoogly","city":"Kolkata","lat":22.510044,"lon\r":88.473895},{"type":"clinic","name":"ABC Clinic","specialization":"Obstetrics","state":"West Bengal","district":"Hoogly","city":"Kolkata","lat":22.63636,"lon\r":88.483895},{"type":"hospital","name":"XYZ Hospital","specialization":"Fertility","state":"West Bengal","district":"Hoogly","city":"Kolkata","lat":22.53785,"lon\r":88.493895},{"type":"doctor","name":"Dr. Brian Thompson","specialization":"Reproductive Endocrinology","state":"West Bengal","district":"Hoogly","city":"Kolkata","lat":22.52912,"lon\r":88.503895},{"type":"clinic","name":"DEF Clinic","specialization":"Maternal and Child Health","state":"West Bengal","district":"Hoogly","city":"Kolkata","lat":22.55566,"lon\r":88.213895},{"type":"hospital","name":"GHI Hospital","specialization":"Reproductive Infectious Diseases","state":"West Bengal","district":"Hoogly","city":"Kolkata","lat":22.566742,"lon\r":88.223895},{"type":"doctor","name":"Dr. Samantha Smith","specialization":"Reproductive Genetics","state":"West Bengal","district":"Hoogly","city":"Kolkata","lat":22.50025,"lon\r":88.239895},{"type":"clinic","name":"JKL Clinic","specialization":"Contraception","state":"West Bengal","district":"Hoogly","city":"Kolkata","lat":22.64523,"lon\r":88.293895},{"type":"hospital","name":"MNO Hospital","specialization":"Gynecologic Oncology","state":"West Bengal","district":"Hoogly","city":"Kolkata","lat":22.64555,"lon\r":88.363895},{"type":"doctor","name":"Dr. Michael Johnson","specialization":"Gynecology","state":"West Bengal","district":"Kolkata","city":"Kolkata","lat":22.60024,"lon\r":88.263895},{"type":"clinic","name":"PQR Clinic","specialization":"Obstetrics","state":"West Bengal","district":"Kolkata","city":"Kolkata","lat":22.66666,"lon\r":88.239895},{"type":"hospital","name":"STU Hospital","specialization":"Fertility","state":"West Bengal","district":"Kolkata","city":"Kolkata","lat":22.67823,"lon\r":88.203895},{"type":"doctor","name":"Dr. Emily Williams","specialization":"Reproductive Endocrinology","state":"West Bengal","district":"Kolkata","city":"Kolkata","lat":22.612612,"lon\r":88.223895},{"type":"clinic","name":"VWX Clinic","specialization":"Maternal and Child Health","state":"West Bengal","district":"Kolkata","city":"Kolkata","lat":22.62223,"lon\r":88.253895},{"type":"hospital","name":"YZ Hospital","specialization":"Reproductive Infectious Diseases","state":"West Bengal","district":"Kolkata","city":"Kolkata","lat":22.69699,"lon\r":88.313895},{"type":"doctor","name":"Dr. David Smith","specialization":"Reproductive Genetics","state":"West Bengal","district":"Kolkata","city":"Kolkata","lat":22.64723,"lon\r":88.323895},{"type":"clinic","name":"ABC Clinic","specialization":"Contraception","state":"West Bengal","district":"Kolkata","city":"Kolkata","lat":22.60148,"lon\r":88.333895},{"type":"hospital","name":"DEF Hospital","specialization":"Gynecologic Oncology","state":"West Bengal","district":"Kolkata","city":"Kolkata","lat":22.6553,"lon\r":88.343895},{"type":"doctor","name":"Dr. Stephanie Johnson","specialization":"Gynecology","state":"West Bengal","district":"Kolkata","city":"Kolkata","lat":22.67712,"lon\r":88.353895},{"type":"clinic","name":"GHI Clinic","specialization":"Obstetrics","state":"West Bengal","district":"Kolkata","city":"Kolkata","lat":22.632111,"lon\r":88.363895},{"type":"hospital","name":"JKL Hospital","specialization":"Fertility","state":"West Bengal","district":"Kolkata","city":"Kolkata","lat":22.67123,"lon\r":88.373895},{"type":"doctor","name":"Dr. Kevin Thompson","specialization":"Reproductive Endocrinology","state":"West Bengal","district":"Kolkata","city":"Kolkata","lat":22.63981,"lon\r":88.383895},{"type":"clinic","name":"MNO Clinic","specialization":"Maternal and Child Health","state":"West Bengal","district":"Kolkata","city":"Kolkata","lat":22.63336,"lon\r":88.393895},{"type":"hospital","name":"PQR Hospital","specialization":"Reproductive Infectious Diseases","state":"West Bengal","district":"Kolkata","city":"Kolkata","lat":22.56392,"lon\r":88.403895},{"type":"doctor","name":"Dr. Jessica Smith","specialization":"Reproductive Genetics","state":"West Bengal","district":"Kolkata","city":"Kolkata","lat":22.61936,"lon\r":88.413895},{"type":"clinic","name":"STU Clinic","specialization":"Contraception","state":"West Bengal","district":"Kolkata","city":"Kolkata","lat":22.68842,"lon\r":88.423895},{"type":"hospital","name":"VWX Hospital","specialization":"Gynecologic Oncology","state":"West Bengal","district":"Kolkata","city":"Kolkata","lat":22.68216,"lon\r":88.433895},{"type":"doctor","name":"Dr. Rachel Williams","specialization":"Gynecology","state":"West Bengal","district":"Kolkata","city":"Howrah","lat":22.69158,"lon\r":88.443895},{"type":"clinic","name":"ABC Clinic","specialization":"Obstetrics","state":"West Bengal","district":"Kolkata","city":"Howrah","lat":22.63005,"lon\r":88.453895},{"type":"hospital","name":"XYZ Hospital","specialization":"Fertility","state":"West Bengal","district":"Hoogly","city":"Howrah","lat":22.66422,"lon\r":88.463895},{"type":"doctor","name":"Dr. Brian Thompson","specialization":"Reproductive Endocrinology","state":"West Bengal","district":"Kolkata","city":"Howrah","lat":22.69867,"lon\r":88.473895},{"type":"clinic","name":"DEF Clinic","specialization":"Maternal and Child Health","state":"West Bengal","district":"Hoogly","city":"Howrah","lat":22.524916,"lon\r":88.483895},{"type":"hospital","name":"GHI Hospital","specialization":"Reproductive Infectious Diseases","state":"West Bengal","district":"Kolkata","city":"Howrah","lat":22.63846,"lon\r":88.493895},{"type":"doctor","name":"Dr. Samantha Smith","specialization":"Reproductive Genetics","state":"West Bengal","district":"Hoogly","city":"Howrah","lat":22.651036,"lon\r":88.503895},{"type":"clinic","name":"JKL Clinic","specialization":"Contraception","state":"West Bengal","district":"Kolkata","city":"Howrah","lat":22.55656,"lon\r":88.213895},{"type":"hospital","name":"MNO Hospital","specialization":"Gynecologic Oncology","state":"West Bengal","district":"Hoogly","city":"Howrah","lat":22.53333,"lon\r":88.223895}]